~Version
 VERS              .         2.0                           : CWLS LOG ASCII STANDARD - VERSION 2.0
 WRAP              .         NO                            : ONE LINE PER DEPTH STEP
 DLM               .         SPACE                         : DELIMITING CHARACTER(SPACE TAB OR COMMA)
~Well Information
#_______________________________________________________________________________
#
#PARAMETER_NAME    .UNIT     VALUE                         : DESCRIPTION
#_______________________________________________________________________________
STRT               .m        2493.8                        : First reference value
STOP               .m        2552.8                        : Last reference value
STEP               .m        0.1                           : Step increment
NULL               .         -9999                         : Missing value
COMP               .                                       : Company
LOC                .                                       : Location
CNTY               .                                       : County
STAT               .                                       : State
CTRY               .                                       : Country
SRVC               .                                       : Service Company
DATE               .                                       : Date
API                .                                       : API number
~Parameter Information Block
#_______________________________________________________________________________
#
#PARAMETER_NAME    .UNIT     VALUE                         : DESCRIPTION
#_______________________________________________________________________________
SET                .         LAS_fin                       : 
TLFamily_Aps       .         Spontaneous Potential Alpha   : 
TLFamily_BK        .         Lateral Log Resistivity       : 
TLFamily_DEPT      .         Measured Depth                : 
TLFamily_GK        .         Russian Gamma Ray             : 
TLFamily_NKTB      .         Neutron Far                   : 
TLFamily_RIK       .         Induction Resistivity         : 
~Curve Information
#_______________________________________________________________________________
#
#LOGNAME           .UNIT     LOG_ID                        : DESCRIPTION
#_______________________________________________________________________________
DEPT               .m                                      : Depth curve 
Aps                .v/v                                    : Апс 
BK                 .ohm.m                                  : Laterolog-3,Ohmm 
GK                 .uR/h                                   : Gamma ray, uR/h 
NKTB               .UE                                     : Neutron-Neutron Termal Deep,  ue 
RIK                .ohm.m                                  : ИКскин 
~Ascii
# ...
2515.8     0.7067     12.7886    10.7034    4.21       7.700300216674805
2515.9     0.7155     13.8727    9.8965     4.97       8.617799758911133
2516       0.7242     14.9569    9.0895     5.73       9.535200119018557
2516.1     0.7291     16.1838    8.0347     7.125      10.77779960632324
2516.2     0.7341     17.4108    6.98       8.52       12.02040004730225
2516.3     0.7417     23.542     7.0118     7.87       12.90880012512207
2516.4     0.7494     29.6733    7.0436     7.22       13.79710006713867
2516.5     0.759      25.3902    7.4614     6.14       13.47529983520508
2516.6     0.7686     21.1071    7.8792     5.06       13.15340042114258
2516.7     0.7778     17.8484    7.8397     5.02       12.43229961395264
2516.8     0.7871     14.5898    7.8001     4.98       11.71109962463379
2516.9     0.7913     15.3853    7.8353     5.095      11.46319961547852
2517       0.7954     16.1807    7.8705     5.21       11.21520042419434
2517.1     0.8074     16.7711    7.8065     5.2682     11.24860000610352
2517.2     0.8193     17.3615    7.7425     5.3264     11.28209972381592
2517.3     0.8247     17.3867    8.0352     5.2333     11.2746000289917
2517.4     0.8301     17.412     8.3279     5.1403     11.26710033416748
2517.5     0.834      17.3895    8.2381     5.1952     11.08880043029785
2517.6     0.8379     17.367     8.1483     5.2502     10.91049957275391
2517.7     0.8401     17.1652    8.1351     5.1002     10.63700008392334
2517.8     0.8422     16.9635    8.1219     4.9501     10.36349964141846
2517.9     0.8434     16.6955    7.9816     5.1261     10.20549964904785
2518       0.8447     16.4276    7.8414     5.3021     10.04740047454834
2518.1     0.8424     16.5019    7.7091     5.3511     10.0492000579834
2518.2     0.8401     16.5761    7.5768     5.4        10.05109977722168
2518.3     0.8456     16.629     7.5265     5.0775     10.05949974060059
2518.4     0.8511     16.6818    7.4763     4.755      10.06799983978272
2518.5     0.8555     16.1789    7.8271     4.8667     10.09609985351563
2518.6     0.8599     15.676     8.1778     4.9783     10.12419986724854
2518.7     0.8617     15.5496    7.5797     5.0348     10.31610012054443
2518.8     0.8636     15.4232    6.9816     5.0913     10.50809955596924
2518.9     0.8726     16.3104    7.1905     5.2921     10.94400024414063
2519       0.8816     17.1976    7.3995     5.4929     11.38000011444092
2519.1     0.8809     18.7134    7.2134     5.8604     12.23200035095215
2519.2     0.8802     20.2293    7.0274     6.228      13.08399963378906
2519.3     0.8747     20.5407    6.7474     7.4385     14.4734001159668
2519.4     0.8692     20.8521    6.4675     8.649      15.86289978027344
2519.5     0.859      29.5145    6.2817     10.1167    17.7367000579834
2519.6     0.8489     38.177     6.0958     11.5844    19.61059951782227
2519.7     0.8509     59.1734    6.1593     11.8172    20.8931999206543
2519.8     0.8529     80.1698    6.2227     12.05      22.17580032348633
2519.9     0.8593     85.4334    6.2198     9.695      21.79220008850098
2520       0.8657     90.6971    6.2168     7.34       21.40859985351563
2520.1     0.8632     66.7553    6.1267     6.645      19.93190002441406
2520.2     0.8606     42.8136    6.0366     5.95       18.45509910583496
2520.3     0.8655     31.6446    6.3628     5.72       16.83029937744141
2520.4     0.8703     20.4755    6.6889     5.49       15.20559978485107
2520.5     0.8755     19.1248    7.2557     5.49       14.02530002593994
2520.6     0.8808     17.774     7.8226     5.49       12.84500026702881
2520.7     0.8842     17.6133    7.5729     5.395      12.1786003112793
2520.8     0.8876     17.4526    7.3233     5.3        11.51210021972656
2520.9     0.8839     17.5987    7.2255     5.3        11.25730037689209
2521       0.8802     17.7448    7.1277     5.3        11.00259971618652
2521.1     0.8771     17.6552    7.0122     4.99       10.8346004486084
2521.2     0.8739     17.5656    6.8968     4.68       10.66660022735596
2521.3     0.8644     17.3037    7.3786     4.79       10.4045000076294
2521.4     0.8548     17.0418    7.8604     4.9        10.14239978790283
2521.5     0.8508     17.1455    7.7802     4.86       9.870499610900881
2521.6     0.8467     17.2492    7.6999     4.82       9.598600387573242
2521.7     0.8584     17.3497    7.4485     5.255      9.445199966430664
2521.8     0.8702     17.4502    7.1971     5.69       9.291799545288086
2521.9     0.8696     17.3537    7.8615     5.305      9.245800018310549
2522       0.8691     17.2573    8.5259     4.92       9.199700355529783
2522.1     0.8663     16.8943    8.702      4.96       9.256099700927734
2522.2     0.8635     16.5313    8.878      5          9.312399864196776
2522.3     0.8727     15.8622    8.8742     5.045      9.560400009155272
2522.4     0.8819     15.1932    8.8703     5.09       9.808500289916992
2522.5     0.8796     15.4885    8.3895     5.785      10.39449977874756
2522.6     0.8772     15.7837    7.9087     6.48       10.98050022125244
2522.7     0.8666     18.1719    7.1299     8.835      12.2814998626709
2522.8     0.8559     20.5602    6.3511     11.19      13.58250045776367
2522.9     0.8551     40.3966    6.2165     13.465     16.3257007598877
2523       0.8542     60.233     6.082      15.74      19.06889915466309
2523.1     0.8515     112.563    6.0085     13.595     22.51609992980957
2523.2     0.8487     164.8929   5.935      11.45      25.96330070495606
2523.3     0.8412     172.3092   6.0935     10.06      25.62019920349121
2523.4     0.8337     179.7256   6.252      8.67       25.27700042724609
2523.5     0.8328     108.0586   6.8716     7.26       21.62590026855469
2523.6     0.8319     36.3916    7.4913     5.85       17.97470092773438
2523.7     0.8352     26.1088    8.2382     5.5        15.38339996337891
2523.8     0.8385     15.826     8.9852     5.15       12.79199981689453
2523.9     0.835      14.9998    8.854      4.87       11.53180027008057
2524       0.8315     14.1735    8.7228     4.59       10.27159976959229
2524.1     0.8236     13.9012    8.2489     4.75       9.655599594116213
2524.2     0.8157     13.629     7.775      4.91       9.039699554443359
2524.3     0.8191     13.6101    7.2581     5.405      8.706899642944336
2524.4     0.8226     13.5912    6.7412     5.9        8.374199867248535
2524.5     0.8449     14.2045    6.7797     5.63       8.2052001953125
2524.6     0.8673     14.8178    6.8182     5.36       8.036199569702148
2524.7     0.8854     15.0653    7.0132     5.265      8.076499938964844
2524.8     0.9036     15.3127    7.2081     5.17       8.116700172424316
2524.9     0.9057     15.4904    7.1497     5.23       8.315299987792969
2525       0.9078     15.668     7.0913     5.29       8.513999938964844
2525.1     0.9127     15.9569    7.0315     5.375      8.669099807739258
2525.2     0.9176     16.2458    6.9718     5.46       8.824099540710449
2525.3     0.9244     16.1402    6.8589     5.39       8.87969970703125
2525.4     0.9313     16.0346    6.7461     5.32       8.935299873352051
2525.5     0.9339     16.0459    6.8843     5.375      9.008600234985352
2525.6     0.9366     16.0572    7.0225     5.43       9.08180046081543
2525.7     0.9377     16.2235    7.0045     5.435      9.21150016784668
2525.8     0.9389     16.3898    6.9866     5.44       9.34119987487793
2525.9     0.9484     16.0696    6.9229     5.615      9.474499702453612
2526       0.9579     15.7494    6.8592     5.79       9.607700347900392
2526.1     0.9575     15.475     6.6535     5.66       9.746399879455566
2526.2     0.9571     15.2007    6.4477     5.53       9.885000228881836
2526.3     0.9492     15.3247    6.4458     5.82       10.12209987640381
2526.4     0.9413     15.4487    6.444      6.11       10.35910034179688
2526.5     0.9404     16.7471    6.8889     5.855      10.62139987945557
2526.6     0.9395     18.0454    7.3337     5.6        10.88370037078857
2526.7     0.9402     18.4307    7.2195     5.61       10.87119960784912
