~Version
 VERS              .         2.0                           : CWLS LOG ASCII STANDARD - VERSION 2.0
 WRAP              .         NO                            : ONE LINE PER DEPTH STEP
 DLM               .         SPACE                         : DELIMITING CHARACTER(SPACE TAB OR COMMA)
~Well Information
#_______________________________________________________________________________
#
#PARAMETER_NAME    .UNIT     VALUE                         : DESCRIPTION
#_______________________________________________________________________________
STRT               .m        2493.8                        : First reference value
STOP               .m        2552.8                        : Last reference value
STEP               .m        0.1                           : Step increment
NULL               .         -9999                         : Missing value
COMP               .                                       : Company
LOC                .                                       : Location
CNTY               .                                       : County
STAT               .                                       : State
CTRY               .                                       : Country
SRVC               .                                       : Service Company
DATE               .                                       : Date
API                .                                       : API number
~Parameter Information Block
#_______________________________________________________________________________
#
#PARAMETER_NAME    .UNIT     VALUE                         : DESCRIPTION
#_______________________________________________________________________________
SET                .         LAS_fin                       : 
TLFamily_Aps       .         Spontaneous Potential Alpha   : 
TLFamily_BK        .         Lateral Log Resistivity       : 
TLFamily_DEPT      .         Measured Depth                : 
TLFamily_GK        .         Russian Gamma Ray             : 
TLFamily_NKTB      .         Neutron Far                   : 
TLFamily_RIK       .         Induction Resistivity         : 
~Curve Information
#_______________________________________________________________________________
#
#LOGNAME           .UNIT     LOG_ID                        : DESCRIPTION
#_______________________________________________________________________________
DEPT               .m                                      : Depth curve 
Aps                .v/v                                    : Апс 
BK                 .ohm.m                                  : Laterolog-3,Ohmm 
GK                 .uR/h                                   : Gamma ray, uR/h 
NKTB               .UE                                     : Neutron-Neutron Termal Deep,  ue 
RIK                .ohm.m                                  : ИКскин 
~Ascii
# ...
2526.8     0.941      18.816     7.1053     5.62       10.85859966278076
2526.9     0.9337     17.5765    7.6191     5.26       10.56719970703125
2527       0.9265     16.3371    8.1328     4.9        10.27569961547852
2527.1     0.9238     14.8348    8.1593     4.78       9.948300361633301
2527.2     0.9212     13.3325    8.1857     4.66       9.621000289916992
2527.3     0.9203     12.7991    8.1423     4.86       9.650400161743164
2527.4     0.9194     12.2657    8.0988     5.06       9.679800033569336
2527.5     0.9259     12.2771    7.6381     5.29       10.26790046691895
2527.6     0.9323     12.2885    7.1775     5.52       10.85599994659424
2527.7     0.9326     12.6778    7.1622     5.955      11.40999984741211
2527.8     0.9328     13.0672    7.1469     6.39       11.96399974822998
2527.9     0.938      13.1828    6.9195     6.43       11.47550010681152
2528       0.9431     13.2985    6.6922     6.47       10.98700046539307
2528.1     0.9459     13.0352    7.1685     6.145      10.035400390625
2528.2     0.9486     12.772     7.6447     5.82       9.083800315856934
2528.3     0.9441     11.6836    7.1811     5.415      8.272600173950195
2528.4     0.9396     10.5952    6.7176     5.01       7.461299896240234
2528.5     0.9439     10.1686    6.9987     4.865      6.802700042724609
2528.6     0.9482     9.742      7.2798     4.72       6.144100189208984
2528.7     0.9521     9.397      7.5451     4.88       5.631700038909912
2528.8     0.956      9.0521     7.8105     5.04       5.11929988861084
2528.9     0.9464     9.0084     8.0206     5.01       4.840000152587891
2529       0.9368     8.9646     8.2307     4.98       4.560800075531006
2529.1     0.934      9.177      8.2384     5.04       4.46049976348877
2529.2     0.9311     9.3895     8.2461     5.1        4.360199928283691
2529.3     0.916      9.5669     8.0773     5.355      4.308800220489502
2529.4     0.9008     9.7444     7.9084     5.61       4.257299900054932
2529.5     0.9004     9.758      8.0215     5.62       4.257100105285645
2529.6     0.8999     9.7717     8.1346     5.63       4.256999969482422
2529.7     0.9127     9.78       8.0166     5.605      4.353000164031982
2529.8     0.9255     9.7883     7.8985     5.58       4.448999881744385
2529.9     0.9274     9.8077     7.4811     5.55       4.589799880981445
2530       0.9292     9.8272     7.0638     5.52       4.730500221252441
2530.1     0.9355     9.8188     7.0722     5.515      4.822000026702881
2530.2     0.9417     9.8105     7.0805     5.51       4.91349983215332
2530.3     0.9451     9.8071     7.417      5.8        4.929299831390381
2530.4     0.9484     9.8038     7.7535     6.09       4.945199966430664
2530.5     0.9432     9.6799     7.6975     5.695      4.946899890899658
2530.6     0.938      9.5561     7.6415     5.3        4.948699951171875
2530.7     0.9283     9.5107     8.3389     5.24       4.957900047302246
2530.8     0.9185     9.4653     9.0362     5.18       4.967100143432617
2530.9     0.9077     9.5534     8.2724     4.945      4.980199813842773
2531       0.897      9.6415     7.5086     4.71       4.993199825286865
2531.1     0.8878     9.762      7.8833     4.905      5.025400161743164
2531.2     0.8786     9.8825     8.2581     5.1        5.057700157165527
2531.3     0.8707     9.8976     7.9268     5.295      5.198100090026856
2531.4     0.8628     9.9127     7.5956     5.49       5.338399887084961
2531.5     0.8499     10.0963    7.8078     5.5        5.510600090026856
2531.6     0.837      10.2799    8.02       5.51       5.682899951934815
2531.7     0.8268     10.3338    8.335      5.255      5.6975998878479
2531.8     0.8167     10.3878    8.65       5          5.712299823760986
2531.9     0.7985     9.2025     9.3026     4.765      5.488200187683106
2532       0.7803     8.0172     9.9552     4.53       5.264200210571289
2532.1     0.7586     6.973      9.1091     4.725      5.011300086975098
2532.2     0.7368     5.9288     8.263      4.92       4.758399963378906
2532.3     0.7313     6.359      8.314      4.675      4.676499843597412
2532.4     0.7258     6.7892     8.3651     4.43       4.594600200653076
2532.5     0.7408     7.3009     8.1992     4.765      4.615600109100342
2532.6     0.7559     7.8126     8.0333     5.1        4.636600017547607
2532.7     0.7702     8.2184     8.2649     4.995      4.640500068664551
2532.8     0.7845     8.6242     8.4964     4.89       4.644400119781494
2532.9     0.7903     8.7501     8.0948     5.535      4.680500030517578
2533       0.7961     8.8761     7.6933     6.18       4.716599941253662
2533.1     0.7949     9.3289     7.5926     6.425      4.976600170135498
2533.2     0.7936     9.7817     7.4919     6.67       5.236599922180176
2533.3     0.7826     10.6525    7.6202     6.565      5.662099838256836
2533.4     0.7716     11.5233    7.7484     6.46       6.087699890136719
2533.5     0.7579     13.7817    7.8514     6.145      6.273200035095215
2533.6     0.7443     16.04      7.9544     5.83       6.458700180053711
2533.7     0.7386     13.7822    8.8607     5.585      6.214200019836426
2533.8     0.7328     11.5243    9.7669     5.34       5.969600200653076
2533.9     0.7378     9.4536     9.4885     5.645      5.667900085449219
2534       0.7428     7.3829     9.2101     5.95       5.366199970245361
2534.1     0.7514     7.7327     8.5577     7.15       5.309100151062012
2534.2     0.7601     8.0826     7.9053     8.35       5.252099990844727
2534.3     0.7758     9.8492     6.898      9.01       5.291699886322022
2534.4     0.7915     11.6158    5.8906     9.67       5.331299781799316
2534.5     0.8043     12.6938    6.0133     9.695      5.212100028991699
2534.6     0.8171     13.7718    6.1359     9.72       5.092899799346924
2534.7     0.824      14.0319    6.5111     9.125      4.910200119018555
2534.8     0.8309     14.292     6.8863     8.53       4.72760009765625
2534.9     0.8335     15.4602    6.6037     7.765      4.61269998550415
2535       0.8361     16.6285    6.3211     7          4.497799873352051
2535.1     0.8413     17.8593    7.0008     6.375      4.417600154876709
2535.2     0.8465     19.0901    7.6805     5.75       4.337399959564209
2535.3     0.8651     14.9283    7.8152     5.485      4.281000137329102
2535.4     0.8837     10.7665    7.95       5.22       4.224599838256836
2535.5     0.899      9.9199     7.6983     4.855      4.216599941253662
2535.6     0.9143     9.0733     7.4466     4.49       4.208600044250488
2535.7     0.9334     8.9036     7.4412     4.5        4.212900161743164
2535.8     0.9526     8.7338     7.4358     4.51       4.217100143432617
2535.9     0.9599     8.5571     7.4365     4.62       4.200500011444092
2536       0.9672     8.3805     7.4372     4.73       4.183899879455566
2536.1     0.9635     8.3446     7.6363     4.71       4.207699775695801
2536.2     0.9598     8.3086     7.8354     4.69       4.231400012969971
2536.3     0.9556     8.2462     7.966      4.775      4.218200206756592
2536.4     0.9515     8.1837     8.0965     4.86       4.204999923706055
2536.5     0.9388     7.6578     8.2129     4.415      4.098199844360352
2536.6     0.9261     7.132      8.3294     3.97       3.991300106048584
2536.7     0.9136     6.5099     8.666      4.19       3.857100009918213
2536.8     0.9011     5.8878     9.0026     4.41       3.722899913787842
2536.9     0.9066     5.7497     8.4509     4.895      3.69569993019104
2537       0.9121     5.6115     7.8993     5.38       3.668499946594238
2537.1     0.9259     5.9255     7.7701     5.115      3.72350001335144
2537.2     0.9397     6.2396     7.6408     4.85       3.778599977493286
2537.3     0.9462     6.3524     7.5847     5.275      3.815900087356567
2537.4     0.9526     6.4652     7.5285     5.7        3.853100061416626
2537.5     0.9532     6.6258     7.3308     5.82       3.900000095367432
2537.6     0.9537     6.7865     7.1331     5.94       3.946899890899658
2537.7     0.9491     7.5635     7.068      6.48       4.181399822235107
