~Version
 VERS              .         2.0                           : CWLS LOG ASCII STANDARD - VERSION 2.0
 WRAP              .         NO                            : ONE LINE PER DEPTH STEP
 DLM               .         SPACE                         : DELIMITING CHARACTER(SPACE TAB OR COMMA)
~Well Information
#_______________________________________________________________________________
#
#PARAMETER_NAME    .UNIT     VALUE                         : DESCRIPTION
#_______________________________________________________________________________
STRT               .m        2493.8                        : First reference value
STOP               .m        2552.8                        : Last reference value
STEP               .m        0.1                           : Step increment
NULL               .         -9999                         : Missing value
COMP               .                                       : Company
LOC                .                                       : Location
CNTY               .                                       : County
STAT               .                                       : State
CTRY               .                                       : Country
SRVC               .                                       : Service Company
DATE               .                                       : Date
API                .                                       : API number
~Parameter Information Block
#_______________________________________________________________________________
#
#PARAMETER_NAME    .UNIT     VALUE                         : DESCRIPTION
#_______________________________________________________________________________
SET                .         LAS_fin                       : 
TLFamily_Aps       .         Spontaneous Potential Alpha   : 
TLFamily_BK        .         Lateral Log Resistivity       : 
TLFamily_DEPT      .         Measured Depth                : 
TLFamily_GK        .         Russian Gamma Ray             : 
TLFamily_NKTB      .         Neutron Far                   : 
TLFamily_RIK       .         Induction Resistivity         : 
~Curve Information
#_______________________________________________________________________________
#
#LOGNAME           .UNIT     LOG_ID                        : DESCRIPTION
#_______________________________________________________________________________
DEPT               .m                                      : Depth curve 
Aps                .v/v                                    : Апс 
BK                 .ohm.m                                  : Laterolog-3,Ohmm 
GK                 .uR/h                                   : Gamma ray, uR/h 
NKTB               .UE                                     : Neutron-Neutron Termal Deep,  ue 
RIK                .ohm.m                                  : ИКскин 
~Ascii
# ...
2504.8     0.0713     2.8695     11.1898    2.68       2.506900072097778
2504.9     0.0869     3.123      10.6789    3.365      2.90120005607605
2505       0.1024     3.3765     10.1679    4.05       3.295500040054321
2505.1     0.1401     4.4866     9.9932     3.945      4.293900012969971
2505.2     0.1778     5.5967     9.8185     3.84       5.292300224304199
2505.3     0.2531     7.7522     9.1441     3.785      7.52370023727417
2505.4     0.3284     9.9077     8.4698     3.73       9.755100250244141
2505.5     0.3962     13.0896    8.0314     4.075      13.26010036468506
2505.6     0.464      16.2715    7.5929     4.42       16.76519966125488
2505.7     0.5089     17.2119    7.6886     4.57       19.11960029602051
2505.8     0.5538     18.1523    7.7843     4.72       21.47410011291504
2505.9     0.5872     18.153     7.8417     4.78       22.48480033874512
2506       0.6205     18.1537    7.8991     4.84       23.4955997467041
2506.1     0.6543     18.0741    7.7381     4.855      23.3661994934082
2506.2     0.6881     17.9945    7.5771     4.87       23.23690032958984
2506.3     0.705      18.2072    7.6312     4.975      22.26059913635254
2506.4     0.722      18.4199    7.6853     5.08       21.28420066833496
2506.5     0.7246     18.4605    7.5654     5.045      20.00069999694824
2506.6     0.7273     18.5011    7.4455     5.01       18.71719932556152
2506.7     0.737      18.5526    7.3576     5.05       17.9286003112793
2506.8     0.7466     18.6041    7.2697     5.09       17.13990020751953
2506.9     0.7552     18.6524    7.3727     4.99       16.70210075378418
2507       0.7638     18.7007    7.4757     4.89       16.2642993927002
2507.1     0.765      18.3435    7.8347     4.785      15.805100440979
2507.2     0.7662     17.9863    8.1937     4.68       15.34589958190918
2507.3     0.7717     17.7325    8.3497     4.625      14.88059997558594
2507.4     0.7772     17.4788    8.5057     4.57       14.41520023345947
2507.5     0.7833     17.6381    8.518      4.71       14.09309959411621
2507.6     0.7893     17.7973    8.5302     4.85       13.77099990844727
2507.7     0.7807     18.0644    8.3204     4.58       13.60709953308106
2507.8     0.7721     18.3315    8.1105     4.31       13.44320011138916
2507.9     0.7712     18.4649    8.171      4.455      13.32310009002686
2508       0.7703     18.5983    8.2315     4.6        13.20300006866455
2508.1     0.7626     18.1709    8.2084     4.585      13.03110027313232
2508.2     0.7549     17.7435    8.1853     4.57       12.85919952392578
2508.3     0.7507     17.4049    8.4031     4.44       12.59869956970215
2508.4     0.7465     17.0664    8.6209     4.31       12.33819961547852
2508.5     0.7425     17.1796    8.7043     4.265      12.05840015411377
2508.6     0.7385     17.2929    8.7878     4.22       11.77859973907471
2508.7     0.7447     17.3298    8.417      4.06       11.62290000915527
2508.8     0.7509     17.3667    8.0462     3.9        11.46710014343262
2508.9     0.7519     17.4067    8.1367     4.175      11.48740005493164
2509       0.7529     17.4468    8.2272     4.45       11.50759983062744
2509.1     0.7541     17.7005    8.396      4.345      11.64789962768555
2509.2     0.7554     17.9542    8.5649     4.24       11.78820037841797
2509.3     0.7602     18.0072    8.4094     4.41       11.90900039672852
2509.4     0.765      18.0601    8.2539     4.58       12.02989959716797
2509.5     0.7728     18.0276    8.5093     4.38       12.15040016174316
2509.6     0.7805     17.9951    8.7647     4.18       12.27099990844727
2509.7     0.7787     18.0985    8.3496     4.405      12.48519992828369
2509.8     0.777      18.2019    7.9345     4.63       12.69939994812012
2509.9     0.7855     18.6109    7.7719     4.65       13.02719974517822
2510       0.7941     19.0198    7.6092     4.67       13.35490036010742
2510.1     0.8038     19.4939    7.4321     4.545      13.7322998046875
2510.2     0.8134     19.9679    7.255      4.42       14.1097002029419
2510.3     0.8039     20.2052    7.3862     4.73       14.44330024719238
2510.4     0.7944     20.4426    7.5174     5.04       14.77680015563965
2510.5     0.7982     20.3482    7.5725     4.585      15.02799987792969
2510.6     0.8021     20.2537    7.6276     4.13       15.27929973602295
2510.7     0.7964     20.1811    7.6891     4.47       15.43959999084473
2510.8     0.7906     20.1085    7.7506     4.81       15.5999002456665
2510.9     0.7912     19.772     7.688      4.595      15.68210029602051
2511       0.7919     19.4355    7.6254     4.38       15.76430034637451
2511.1     0.7918     18.9743    7.6757     4.54       15.80399990081787
2511.2     0.7918     18.5132    7.7261     4.7        15.84370040893555
2511.3     0.7919     18.12      7.5634     4.515      15.98400020599365
2511.4     0.792      17.7268    7.4007     4.33       16.12439918518066
2511.5     0.788      17.8971    7.5099     4.35       16.45389938354492
2511.6     0.784      18.0673    7.6191     4.37       16.78350067138672
2511.7     0.7876     18.8497    7.6343     4.915      17.15530014038086
2511.8     0.7912     19.632     7.6494     5.46       17.52700042724609
2511.9     0.7956     20.0119    7.6585     5.57       17.93490028381348
2512       0.8        20.3918    7.6675     5.68       18.34280014038086
2512.1     0.7947     20.1891    7.8966     5.29       18.57799911499023
2512.2     0.7894     19.9865    8.1257     4.9        18.81329917907715
2512.3     0.7861     20.0396    7.7784     5.45       19.04240036010742
2512.4     0.7828     20.0926    7.4311     6          19.27140045166016
2512.5     0.783      19.8516    7.4948     5.805      19.90999984741211
2512.6     0.7831     19.6106    7.5585     5.61       20.54859924316406
2512.7     0.7822     21.0007    7.0791     5.73       21.74379920959473
2512.8     0.7812     22.3908    6.5996     5.85       22.93899917602539
2512.9     0.7716     23.3464    6.3438     5.805      24.37980079650879
2513       0.7619     24.3019    6.088      5.76       25.82069969177246
2513.1     0.758      24.7761    6.6161     5.695      28.84339904785156
2513.2     0.7541     25.2502    7.1442     5.63       31.8661994934082
2513.3     0.7359     25.975     7.295      5.68       35.01900100708008
2513.4     0.7177     26.6998    7.4458     5.73       38.17169952392578
2513.5     0.692      27.3415    6.997      5.63       35.2932014465332
2513.6     0.6663     27.9833    6.5483     5.53       32.41460037231445
2513.7     0.6437     26.6412    6.6458     5.635      28.27289962768555
2513.8     0.6211     25.2991    6.7433     5.74       24.13120079040527
2513.9     0.6055     24.6915    7.1691     5.365      22.59269905090332
2514       0.5899     24.0839    7.5949     4.99       21.05410003662109
2514.1     0.5544     23.0486    8.2997     4.71       17.98049926757813
2514.2     0.519      22.0133    9.0044     4.43       14.9069995880127
2514.3     0.4598     17.7274    10.0024    4.03       11.50370025634766
2514.4     0.4006     13.4414    11.0004    3.63       8.100399971008301
2514.5     0.3434     8.8701     11.1833    3.46       6.468599796295166
2514.6     0.2861     4.2989     11.3662    3.29       4.836900234222412
2514.7     0.2765     4.3524     11.011     3.505      4.459099769592285
2514.8     0.267      4.4058     10.6557    3.72       4.081200122833252
2514.9     0.3151     4.9579     9.9791     3.6        4.221099853515625
2515       0.3632     5.51       9.3026     3.48       4.361000061035156
2515.1     0.4235     6.2306     9.1397     3.67       4.613200187683106
2515.2     0.4838     6.9512     8.9768     3.86       4.865300178527832
2515.3     0.5397     7.7118     9.0696     3.775      5.131400108337402
2515.4     0.5955     8.4724     9.1624     3.69       5.397500038146973
2515.5     0.6273     8.8927     9.6065     3.925      5.819499969482422
2515.6     0.6591     9.313      10.0505    4.16       6.241499900817871
2515.7     0.6829     11.0508    10.3769    4.185      6.970900058746338
