~Version
 VERS              .         2.0                           : CWLS LOG ASCII STANDARD - VERSION 2.0
 WRAP              .         NO                            : ONE LINE PER DEPTH STEP
 DLM               .         SPACE                         : DELIMITING CHARACTER(SPACE TAB OR COMMA)
~Well Information
#_______________________________________________________________________________
#
#PARAMETER_NAME    .UNIT     VALUE                         : DESCRIPTION
#_______________________________________________________________________________
STRT               .m        2493.8                        : First reference value
STOP               .m        2552.8                        : Last reference value
STEP               .m        0.1                           : Step increment
NULL               .         -9999                         : Missing value
COMP               .                                       : Company
LOC                .                                       : Location
CNTY               .                                       : County
STAT               .                                       : State
CTRY               .                                       : Country
SRVC               .                                       : Service Company
DATE               .                                       : Date
API                .                                       : API number
~Parameter Information Block
#_______________________________________________________________________________
#
#PARAMETER_NAME    .UNIT     VALUE                         : DESCRIPTION
#_______________________________________________________________________________
SET                .         LAS_fin                       : 
TLFamily_Aps       .         Spontaneous Potential Alpha   : 
TLFamily_BK        .         Lateral Log Resistivity       : 
TLFamily_DEPT      .         Measured Depth                : 
TLFamily_GK        .         Russian Gamma Ray             : 
TLFamily_NKTB      .         Neutron Far                   : 
TLFamily_RIK       .         Induction Resistivity         : 
~Curve Information
#_______________________________________________________________________________
#
#LOGNAME           .UNIT     LOG_ID                        : DESCRIPTION
#_______________________________________________________________________________
DEPT               .m                                      : Depth curve 
Aps                .v/v                                    : Апс 
BK                 .ohm.m                                  : Laterolog-3,Ohmm 
GK                 .uR/h                                   : Gamma ray, uR/h 
NKTB               .UE                                     : Neutron-Neutron Termal Deep,  ue 
RIK                .ohm.m                                  : ИКскин 
~Ascii
2493.8     0.0126     4.4043     12.946     4          4.506800174713135
2493.9     0.0068     4.4079     12.8111    4.165      4.516799926757813
2494       0.001      4.4115     12.6763    4.33       4.526899814605713
2494.1     0.0075     4.6712     12.2755    4.385      4.672800064086914
2494.2     0.0139     4.9308     11.8747    4.44       4.818699836730957
2494.3     0.0153     4.9981     11.9149    4.27       4.991000175476074
2494.4     0.0166     5.0655     11.955     4.1        5.163300037384033
2494.5     0.0175     5.1215     11.9485    4.065      5.222499847412109
2494.6     0.0184     5.1776     11.942     4.03       5.281599998474121
2494.7     0.0169     5.1339     12.1507    4.18       5.271800041198731
2494.8     0.0154     5.0902     12.3594    4.33       5.26200008392334
2494.9     0.0082     5.049      12.0632    4.495      5.268799781799316
2495       0.001      5.0078     11.767     4.66       5.275599956512451
2495.1     0.001      5.0051     11.9277    4.55       5.290800094604492
2495.2     0.001      5.0025     12.0884    4.44       5.305900096893311
2495.3     0.0068     5.0195     12.0177    4.61       5.303100109100342
2495.4     0.0126     5.0364     11.947     4.78       5.30019998550415
2495.5     0.024      5.0185     11.9308    4.415      5.295700073242188
2495.6     0.0353     5.0007     11.9146    4.05       5.291100025177002
2495.7     0.0246     5.0025     11.5396    4.32       5.286600112915039
2495.8     0.0139     5.0043     11.1646    4.59       5.282199859619141
2495.9     0.018      4.9898     11.5851    4.345      5.292200088500977
2496       0.022      4.9753     12.0055    4.1        5.302199840545654
2496.1     0.029      5.0091     12.1898    4.385      5.341800212860107
2496.2     0.0361     5.0429     12.3742    4.67       5.38129997253418
2496.3     0.0418     5.1501     11.7724    4.455      5.434500217437744
2496.4     0.0476     5.2573     11.1706    4.24       5.48769998550415
2496.5     0.0423     5.2578     11.5603    4.535      5.517099857330322
2496.6     0.0371     5.2584     11.95      4.83       5.546500205993652
2496.7     0.032      5.2003     12.2731    4.35       5.552599906921387
2496.8     0.027      5.1422     12.5961    3.87       5.558700084686279
2496.9     0.0309     5.1179     12.5628    3.945      5.574600219726563
2497       0.0348     5.0937     12.5296    4.02       5.590499877929688
2497.1     0.0265     5.1546     12.0644    4.08       5.672299861907959
2497.2     0.0182     5.2156     11.5991    4.14       5.754099845886231
2497.3     0.0229     5.314      11.8503    4.195      5.844200134277344
2497.4     0.0277     5.4123     12.1014    4.25       5.934299945831299
2497.5     0.0231     5.4473     12.2442    4.29       5.940599918365479
2497.6     0.0186     5.4823     12.387     4.33       5.947000026702881
2497.7     0.0148     5.3036     12.5338    4.375      5.826300144195557
2497.8     0.0109     5.1249     12.6805    4.42       5.705599784851074
2497.9     0.0133     5.1054     12.8512    4.24       5.593400001525879
2498       0.0157     5.086      13.022     4.06       5.481299877166748
2498.1     0.0154     5.1104     12.6219    4.14       5.468599796295166
2498.2     0.015      5.1348     12.2217    4.22       5.455999851226807
2498.3     0.0166     5.1476     12.0073    4.255      5.499499797821045
2498.4     0.0182     5.1605     11.7929    4.29       5.543099880218506
2498.5     0.0235     5.1805     11.9893    4.265      5.575699806213379
2498.6     0.0288     5.2005     12.1856    4.24       5.60830020904541
2498.7     0.0339     5.1796     12.0988    4.195      5.5903000831604
2498.8     0.039      5.1586     12.012     4.15       5.572299957275391
2498.9     0.0352     5.1506     11.8647    4.355      5.542900085449219
2499       0.0313     5.1426     11.7174    4.56       5.513400077819824
2499.1     0.0303     5.1785     11.641     4.495      5.537099838256836
2499.2     0.0294     5.2145     11.5646    4.43       5.560699939727783
2499.3     0.0376     5.2839     11.6665    4.425      5.645800113677979
2499.4     0.0459     5.3534     11.7683    4.42       5.730800151824951
2499.5     0.0468     5.39       11.7519    4.71       5.812600135803223
2499.6     0.0477     5.4266     11.7355    5          5.894400119781494
2499.7     0.0373     5.429      11.9938    4.635      5.940400123596191
2499.8     0.0269     5.4315     12.2521    4.27       5.986299991607666
2499.9     0.0236     5.4791     11.9622    4.71       6.004899978637695
2500       0.0203     5.5268     11.6724    5.15       6.023499965667725
2500.1     0.0197     5.5131     11.7619    4.965      6.030900001525879
2500.2     0.019      5.4994     11.8513    4.78       6.038300037384033
2500.3     0.0228     5.4599     11.7418    4.72       6.058899879455566
2500.4     0.0266     5.4203     11.6323    4.66       6.079599857330322
2500.5     0.0248     5.4544     11.7915    4.57       6.054100036621094
2500.6     0.0231     5.4886     11.9506    4.48       6.02869987487793
2500.7     0.0226     5.4776     11.5121    4.51       5.952099800109863
2500.8     0.0222     5.4666     11.0736    4.54       5.875500202178955
2500.9     0.0261     5.3506     11.7751    4.61       5.730500221252441
2501       0.0301     5.2347     12.4766    4.68       5.585400104522705
2501.1     0.0303     4.9771     12.7681    4.18       5.343800067901611
2501.2     0.0305     4.7195     13.0596    3.68       5.102099895477295
2501.3     0.0292     4.6972     13.341     3.86       4.85920000076294
2501.4     0.028      4.6749     13.6224    4.04       4.616300106048584
2501.5     0.0184     4.4725     13.3313    3.905      4.448200225830078
2501.6     0.0089     4.27       13.0401    3.77       4.280200004577637
2501.7     0.0103     4.2186     13.0635    3.85       4.220699787139893
2501.8     0.0117     4.1672     13.0869    3.93       4.161200046539307
2501.9     0.0141     4.2529     13.025     3.84       4.154300212860107
2502       0.0166     4.3387     12.9631    3.75       4.14739990234375
2502.1     0.0131     4.238      12.8207    3.785      4.122799873352051
2502.2     0.0096     4.1373     12.6783    3.82       4.098199844360352
2502.3     0.0135     4.0981     12.7771    4.105      4.111199855804443
2502.4     0.0173     4.0589     12.8758    4.39       4.124300003051758
2502.5     0.0213     4.2228     12.1447    4.445      4.213600158691406
2502.6     0.0253     4.3868     11.4136    4.5        4.302999973297119
2502.7     0.0208     4.4693     11.5678    4.185      4.412799835205078
2502.8     0.0163     4.5519     11.722     3.87       4.52269983291626
2502.9     0.0087     4.5214     11.9983    3.865      4.572199821472168
2503       0.001      4.4909     12.2746    3.86       4.621600151062012
2503.1     0.0065     4.4503     12.2218    3.64       4.555200099945068
2503.2     0.012      4.4097     12.169     3.42       4.488699913024902
2503.3     0.0244     4.2471     12.3088    3.54       4.325399875640869
2503.4     0.0368     4.0845     12.4485    3.66       4.162199974060059
2503.5     0.0359     4.0983     12.6269    3.52       4.033999919891357
2503.6     0.035      4.1121     12.8053    3.38       3.905800104141235
2503.7     0.0277     4.1741     12.644     3.175      3.81660008430481
2503.8     0.0205     4.236      12.4827    2.97       3.727499961853027
2503.9     0.0234     4.182      12.1539    3.11       3.5764000415802
2504       0.0264     4.1281     11.8252    3.25       3.425299882888794
2504.1     0.029      3.7285     11.74      3.075      3.166899919509888
2504.2     0.0317     3.329      11.6547    2.9        2.908400058746338
2504.3     0.0517     3.1916     11.3461    2.775      2.680700063705444
2504.4     0.0717     3.0542     11.0374    2.65       2.453000068664551
2504.5     0.0713     2.9237     11.3423    2.515      2.373199939727783
2504.6     0.0708     2.7932     11.6472    2.38       2.293400049209595
2504.7     0.0711     2.8313     11.4185    2.53       2.400199890136719
