~Version
 VERS              .         2.0                           : CWLS LOG ASCII STANDARD - VERSION 2.0
 WRAP              .         NO                            : ONE LINE PER DEPTH STEP
 DLM               .         SPACE                         : DELIMITING CHARACTER(SPACE TAB OR COMMA)
~Well Information
#_______________________________________________________________________________
#
#PARAMETER_NAME    .UNIT     VALUE                         : DESCRIPTION
#_______________________________________________________________________________
STRT               .m        2493.8                        : First reference value
STOP               .m        2552.8                        : Last reference value
STEP               .m        0.1                           : Step increment
NULL               .         -9999                         : Missing value
COMP               .                                       : Company
LOC                .                                       : Location
CNTY               .                                       : County
STAT               .                                       : State
CTRY               .                                       : Country
SRVC               .                                       : Service Company
DATE               .                                       : Date
API                .                                       : API number
~Parameter Information Block
#_______________________________________________________________________________
#
#PARAMETER_NAME    .UNIT     VALUE                         : DESCRIPTION
#_______________________________________________________________________________
SET                .         LAS_fin                       : 
TLFamily_Aps       .         Spontaneous Potential Alpha   : 
TLFamily_BK        .         Lateral Log Resistivity       : 
TLFamily_DEPT      .         Measured Depth                : 
TLFamily_GK        .         Russian Gamma Ray             : 
TLFamily_NKTB      .         Neutron Far                   : 
TLFamily_RIK       .         Induction Resistivity         : 
~Curve Information
#_______________________________________________________________________________
#
#LOGNAME           .UNIT     LOG_ID                        : DESCRIPTION
#_______________________________________________________________________________
DEPT               .m                                      : Depth curve 
Aps                .v/v                                    : Апс 
BK                 .ohm.m                                  : Laterolog-3,Ohmm 
GK                 .uR/h                                   : Gamma ray, uR/h 
NKTB               .UE                                     : Neutron-Neutron Termal Deep,  ue 
RIK                .ohm.m                                  : ИКскин 
~Ascii
# ...
2537.8     0.9446     8.3405     7.003      7.02       4.415900230407715
2537.9     0.94       9.3279     7.0993     7.03       4.833399772644043
2538       0.9353     10.3154    7.1957     7.04       5.250800132751465
2538.1     0.9254     11.5406    7.47       6.895      5.560800075531006
2538.2     0.9155     12.7658    7.7444     6.75       5.870699882507324
2538.3     0.9159     12.1217    7.9439     6.38       5.93809986114502
2538.4     0.9164     11.4777    8.1434     6.01       6.005599975585938
2538.5     0.9181     11.2877    7.7882     5.97       5.924900054931641
2538.6     0.9198     11.0977    7.4331     5.93       5.844200134277344
2538.7     0.9216     10.9791    7.5215     5.905      5.677800178527832
2538.8     0.9235     10.8605    7.6099     5.88       5.511300086975098
2538.9     0.9179     10.1712    7.6865     6.06       5.333199977874756
2539       0.9123     9.4819     7.763      6.24       5.155099868774414
2539.1     0.8903     9.3948     7.4865     6.575      5.082200050354004
2539.2     0.8682     9.3078     7.21       6.91       5.009399890899658
2539.3     0.8346     9.4967     6.9635     8.04       5.177000045776367
2539.4     0.801      9.6855     6.717      9.17       5.344600200653076
2539.5     0.73       10.5729    7.2095     8.385      5.60830020904541
2539.6     0.659      11.4602    7.702      7.6        5.872000217437744
2539.7     0.5715     12.2113    9.038      6.71       5.757900238037109
2539.8     0.4839     12.9623    10.374     5.82       5.643700122833252
2539.9     0.372      9.6475     11.4361    4.93       5.085899829864502
2540       0.26       6.3326     12.4983    4.04       4.528200149536133
2540.1     0.1815     4.9672     12.6933    3.69       4.09250020980835
2540.2     0.103      3.6017     12.8883    3.34       3.656800031661987
2540.3     0.0792     3.5598     12.8615    3.61       3.56030011177063
2540.4     0.0555     3.518      12.8346    3.88       3.463799953460693
2540.5     0.0429     3.6771     12.5231    3.945      3.590199947357178
2540.6     0.0303     3.8363     12.2116    4.01       3.716599941253662
2540.7     0.0272     4.046      12.4405    4.1        3.895999908447266
2540.8     0.0242     4.2557     12.6694    4.19       4.075500011444092
2540.9     0.0344     4.3092     12.7445    4.19       4.151700019836426
2541       0.0447     4.3628     12.8196    4.19       4.22790002822876
2541.1     0.0454     4.3675     12.6656    4.28       4.265399932861328
2541.2     0.0461     4.3722     12.5116    4.37       4.302800178527832
2541.3     0.0397     4.3384     11.9924    4.58       4.378399848937988
2541.4     0.0332     4.3047     11.4733    4.79       4.45389986038208
2541.5     0.0327     4.4247     11.3257    4.505      4.55810022354126
2541.6     0.0322     4.5447     11.1781    4.22       4.662300109863281
2541.7     0.0359     4.7096     11.1222    4.155      4.751699924468994
2541.8     0.0396     4.8745     11.0664    4.09       4.84119987487793
2541.9     0.0347     4.6679     11.2983    4.18       4.8572998046875
2542       0.0299     4.4613     11.5302    4.27       4.873300075531006
2542.1     0.0337     4.6431     12.2526    3.94       4.831900119781494
2542.2     0.0374     4.8249     12.9749    3.61       4.79040002822876
2542.3     0.0354     4.6127     12.735     3.985      4.630099773406982
2542.4     0.0334     4.4005     12.4951    4.36       4.469900131225586
2542.5     0.0175     4.2664     12.534     4.03       4.315599918365479
2542.6     0.0017     4.1323     12.573     3.7        4.161300182342529
2542.7     0.0013     4.1281     12.5357    3.785      4.101399898529053
2542.8     0.001      4.1239     12.4984    3.87       4.041600227355957
2542.9     0.001      4.1237     12.2985    3.855      4.033999919891357
2543       0.001      4.1236     12.0987    3.84       4.026500225067139
2543.1     0.0091     4.0803     12.1416    4.08       4.02370023727417
2543.2     0.0172     4.037      12.1845    4.32       4.020899772644043
2543.3     0.0231     4.0761     11.8366    4.23       4.081200122833252
2543.4     0.029      4.1153     11.4888    4.14       4.14139986038208
2543.5     0.0335     4.3861     11.5951    4.235      4.303100109100342
2543.6     0.038      4.6568     11.7014    4.33       4.464799880981445
2543.7     0.0355     4.6213     11.7402    4.025      4.528800010681152
2543.8     0.0331     4.5857     11.779     3.72       4.592899799346924
2543.9     0.0313     4.543      11.9862    3.565      4.573599815368652
2544       0.0295     4.5003     12.1933    3.41       4.554299831390381
2544.1     0.0365     4.4051     12.1399    3.58       4.557899951934815
2544.2     0.0435     4.3098     12.0865    3.75       4.561500072479248
2544.3     0.0454     4.3512     11.9095    3.555      4.589900016784668
2544.4     0.0472     4.3926     11.7324    3.36       4.618299961090088
2544.5     0.046      4.4048     11.9953    3.41       4.560299873352051
2544.6     0.0448     4.417      12.2582    3.46       4.502200126647949
2544.7     0.0451     4.3163     11.6533    3.595      4.483399868011475
2544.8     0.0455     4.2156     11.0484    3.73       4.464600086212158
2544.9     0.0665     4.2432     10.4135    4.03       4.635499954223633
2545       0.0876     4.2709     9.7787     4.33       4.806399822235107
2545.1     0.1137     5.0965     9.8289     4.175      5.062699794769287
2545.2     0.1398     5.9221     9.8792     4.02       5.31909990310669
2545.3     0.1268     6.1817     11.1849    4.095      5.198699951171875
2545.4     0.1138     6.4412     12.4905    4.17       5.078299999237061
2545.5     0.0848     5.445      12.0807    4.06       4.818699836730957
2545.6     0.0559     4.4488     11.671     3.95       4.559100151062012
2545.7     0.0525     4.3963     11.9398    3.715      4.505099773406982
2545.8     0.0491     4.3438     12.2087    3.48       4.451099872589111
2545.9     0.051      4.3608     12.2917    3.84       4.428500175476074
2546       0.0529     4.3778     12.3748    4.2        4.406000137329102
2546.1     0.0704     4.2237     12.1294    4.265      4.386499881744385
2546.2     0.0878     4.0696     11.8841    4.33       4.367099761962891
2546.3     0.1196     4.1758     10.8334    4.6        4.542099952697754
2546.4     0.1514     4.282      9.7826     4.87       4.717100143432617
2546.5     0.1722     5.2892     9.8358     4.895      5.048600196838379
2546.6     0.1929     6.2963     9.889      4.92       5.380000114440918
2546.7     0.1873     6.1337     10.4532    4.635      5.381400108337402
2546.8     0.1816     5.9712     11.0174    4.35       5.382699966430664
2546.9     0.1623     5.3641     10.9116    4.415      5.204100131988525
2547       0.1429     4.757      10.8057    4.48       5.025400161743164
2547.1     0.1428     4.5826     10.2607    4.56       5.000899791717529
2547.2     0.1426     4.4081     9.7158     4.64       4.976500034332275
2547.3     0.1553     4.4386     9.5772     4.555      5.072700023651123
2547.4     0.168      4.4691     9.4387     4.47       5.168900012969971
2547.5     0.1852     4.597      9.5877     4.255      5.168099880218506
2547.6     0.2024     4.7249     9.7367     4.04       5.167399883270264
2547.7     0.2185     4.8245     9.0606     4.4        5.054999828338623
2547.8     0.2345     4.9241     8.3846     4.76       4.942699909210205
2547.9     0.2479     4.9795     8.9084     4.39       4.826900005340576
2548       0.2612     5.0348     9.4322     4.02       4.711100101470947
2548.1     0.2705     5.0494     9.3141     4.02       4.645500183105469
2548.2     0.2798     5.0641     9.1959     4.02       4.579999923706055
2548.3     0.2832     5.0014     9.0213     4.32       4.535900115966797
2548.4     0.2865     4.9387     8.8467     4.62       4.491899967193604
2548.5     0.2975     4.9638     9.0201     4.33       4.454999923706055
2548.6     0.3085     4.9889     9.1936     4.04       4.418099880218506
2548.7     0.3176     5.0181     9.2159     4.03       4.39330005645752
